[{"placeID":134999,"latitude":18.915421,"longitude":-99.184871,"the_geom_meter":"0101000020957F000088568DE356715AC138C0A525FC464A41","name":"Kiku Cuernavaca","address":"Revolucion","city":"Cuernavaca","state":"Morelos","country":"Mexico","fax":"?","zip":"?","alcohol":"No_Alcohol_Served","smoking_area":"none","dress_code":"informal","accessibility":"no_accessibility","price":"medium","url":"kikucuernavaca.com.mx","Rambience":"familiar","franchise":"f","area":"closed","other_services":"none"},{"placeID":132825,"latitude":22.1473922,"longitude":-100.983092,"the_geom_meter":"0101000020957F00001AD016568C4858C1243261274BA54B41","name":"puesto de tacos","address":"esquina santos degollado y leon guzman","city":"s.l.p.","state":"s.l.p.","country":"mexico","fax":"?","zip":"78280","alcohol":"No_Alcohol_Served","smoking_area":"none","dress_code":"informal","accessibility":"completely","price":"low","url":"?","Rambience":"familiar","franchise":"f","area":"open","other_services":"none"},{"placeID":135106,"latitude":22.1497088,"longitude":-100.9760928,"the_geom_meter":"0101000020957F0000649D6F21634858C119AE9BF528A34B41","name":"El Rinc\ufffdn de San Francisco","address":"Universidad 169","city":"San Luis Potosi","state":"San Luis Potosi","country":"Mexico","fax":"?","zip":"78000","alcohol":"Wine-Beer","smoking_area":"only at bar","dress_code":"informal","accessibility":"partially","price":"medium","url":"?","Rambience":"familiar","franchise":"f","area":"open","other_services":"none"},{"placeID":132667,"latitude":23.7526973,"longitude":-99.1633594,"the_geom_meter":"0101000020957F00005D67BCDDED8157C1222A2DC8D84D4941","name":"little pizza Emilio Portes Gil","address":"calle emilio portes gil","city":"victoria ","state":"tamaulipas","country":"?","fax":"?","zip":"?","alcohol":"No_Alcohol_Served","smoking_area":"none","dress_code":"informal","accessibility":"completely","price":"low","url":"?","Rambience":"familiar","franchise":"t","area":"closed","other_services":"none"},{"placeID":132613,"latitude":23.7529035,"longitude":-99.165076,"the_geom_meter":"0101000020957F00008EBA2D06DC8157C194E03B7B504E4941","name":"carnitas_mata","address":"lic. Emilio portes gil","city":"victoria","state":"Tamaulipas","country":"Mexico","fax":"?","zip":"?","alcohol":"No_Alcohol_Served","smoking_area":"permitted","dress_code":"informal","accessibility":"completely","price":"medium","url":"?","Rambience":"familiar","franchise":"t","area":"closed","other_services":"none"},{"placeID":135040,"latitude":22.135617,"longitude":-100.969709,"the_geom_meter":"0101000020957F00001B552189B84A58C15A2AAEFD2CA24B41","name":"Restaurant los Compadres","address":"Camino a Simon Diaz 155 Centro","city":"San Luis Potosi","state":"SLP","country":"Mexico","fax":"?","zip":"74000","alcohol":"Wine-Beer","smoking_area":"none","dress_code":"informal","accessibility":"no_accessibility","price":"high","url":"?","Rambience":"familiar","franchise":"f","area":"closed","other_services":"none"},{"placeID":132732,"latitude":23.7543569,"longitude":-99.171288,"the_geom_meter":"0101000020957F00008A20E615808157C16272FECBF84F4941","name":"Taqueria EL amigo ","address":"Calle Mezquite Fracc Framboyanes","city":"Cd Victoria","state":"Tamaulipas","country":"Mexico","fax":"?","zip":"87018","alcohol":"No_Alcohol_Served","smoking_area":"none","dress_code":"casual","accessibility":"completely","price":"low","url":"?","Rambience":"familiar","franchise":"f","area":"open","other_services":"none"},{"placeID":132875,"latitude":22.1499013,"longitude":-100.9937793,"the_geom_meter":"0101000020957F00008A2A0747DE4758C11EB31D2A31A84B41","name":"shi ro ie","address":"?","city":"?","state":"?","country":"?","fax":"?","zip":"?","alcohol":"Wine-Beer","smoking_area":"section","dress_code":"informal","accessibility":"no_accessibility","price":"high","url":"?","Rambience":"familiar","franchise":"t","area":"open","other_services":"Internet"},{"placeID":132609,"latitude":23.7602683,"longitude":-99.1658646,"the_geom_meter":"0101000020957F0000A478418BBA8057C133851EB22C4E4941","name":"Pollo_Frito_Buenos_Aires","address":"tampico","city":"victoria","state":"Tamaulipas","country":"Mexico","fax":"?","zip":"?","alcohol":"No_Alcohol_Served","smoking_area":"not permitted","dress_code":"informal","accessibility":"completely","price":"low","url":"?","Rambience":"quiet","franchise":"t","area":"closed","other_services":"none"},{"placeID":135082,"latitude":22.151448,"longitude":-100.915099,"the_geom_meter":"0101000020957F0000A29FAF95CD4958C1FEEEBB73A9914B41","name":"la Estrella de Dimas","address":"Villa de Pozos 192 Villa de Pozos","city":"San Luis Potosi","state":"SLP","country":"Mexico","fax":"?","zip":"78421","alcohol":"No_Alcohol_Served","smoking_area":"none","dress_code":"informal","accessibility":"no_accessibility","price":"medium","url":"?","Rambience":"familiar","franchise":"f","area":"closed","other_services":"none"},{"placeID":135070,"latitude":22.152918,"longitude":-100.915164,"the_geom_meter":"0101000020957F0000ED435B84934958C1B3CF85FA97914B41","name":"Restaurante 75","address":"Villa de Pozos 4497 Villa de Pozos","city":"San Luis Potosi","state":"SLP","country":"Mexico","fax":"?","zip":"78421","alcohol":"No_Alcohol_Served","smoking_area":"none","dress_code":"informal","accessibility":"no_accessibility","price":"medium","url":"?","Rambience":"familiar","franchise":"f","area":"closed","other_services":"none"},{"placeID":135069,"latitude":22.140129,"longitude":-100.944872,"the_geom_meter":"0101000020957F000038E5D546B74A58C18FD29AD0D29A4B41","name":"Abondance Restaurante Bar","address":"Industrias 908 Valle Dorado","city":"San Luis Potosi","state":"SLP","country":"Mexico","fax":"?","zip":"78399","alcohol":"Wine-Beer","smoking_area":"none","dress_code":"informal","accessibility":"no_accessibility","price":"low","url":"?","Rambience":"familiar","franchise":"f","area":"closed","other_services":"none"},{"placeID":135065,"latitude":22.14958,"longitude":-100.999557,"the_geom_meter":"0101000020957F000094A6A8E3C14758C17435E6D1DBA94B41","name":"El angel Restaurante","address":"Venustiano Carranza 1625 Jardin","city":"San Luis Potosi","state":"SLP","country":"Mexico","fax":"?","zip":"78250","alcohol":"Wine-Beer","smoking_area":"section","dress_code":"informal","accessibility":"no_accessibility","price":"high","url":"?","Rambience":"familiar","franchise":"f","area":"closed","other_services":"none"},{"placeID":135076,"latitude":22.181017,"longitude":-100.973614,"the_geom_meter":"0101000020957F00005657121FAA4358C1A8030D5598A04B41","name":"Restaurante Pueblo Bonito","address":"Mexico 2015 Providencia","city":"San Luis Potosi","state":"SLP","country":"Mexico","fax":"?","zip":"78395","alcohol":"Wine-Beer","smoking_area":"none","dress_code":"informal","accessibility":"no_accessibility","price":"high","url":"?","Rambience":"familiar","franchise":"f","area":"closed","other_services":"none"},{"placeID":135086,"latitude":22.141421,"longitude":-101.013955,"the_geom_meter":"0101000020957F0000FA1A0E5A9B4858C17C884C4173AE4B41","name":"Mcdonalds Parque Tangamanga","address":"Lateral Salvador Nava Martinez 3145","city":"San Luis Potosi","state":"SLP","country":"Mexico","fax":"?","zip":"78290","alcohol":"No_Alcohol_Served","smoking_area":"not permitted","dress_code":"informal","accessibility":"no_accessibility","price":"medium","url":"?","Rambience":"familiar","franchise":"t","area":"closed","other_services":"none"},{"placeID":132870,"latitude":22.1430781,"longitude":-100.9354788,"the_geom_meter":"0101000020957F0000550FC1FC854A58C16D7D4E35F8974B41","name":"Tortas y hamburguesas el gordo","address":"Ricardo B. Anaya","city":"San Luis Potosi","state":"San Luis Potosi","country":"Mexico","fax":"?","zip":"?","alcohol":"No_Alcohol_Served","smoking_area":"not permitted","dress_code":"informal","accessibility":"no_accessibility","price":"low","url":"?","Rambience":"familiar","franchise":"f","area":"closed","other_services":"none"},{"placeID":132854,"latitude":22.1378633,"longitude":-100.9383273,"the_geom_meter":"0101000020957F0000FEC3FB453E4B58C19B4A463617994B41","name":"Sirlone","address":"carr. mexico","city":"San Luis Potosi","state":"San Luis Potosi","country":"Mexico","fax":"?","zip":"?","alcohol":"Wine-Beer","smoking_area":"none","dress_code":"informal","accessibility":"completely","price":"medium","url":"?","Rambience":"familiar","franchise":"f","area":"closed","other_services":"none"},{"placeID":132937,"latitude":22.1500193,"longitude":-100.9799203,"the_geom_meter":"0101000020957F0000F9F19DDC3B4858C191B265A83BA44B41","name":"rockabilly ","address":"agustin de iturbide","city":"san luis potosi","state":"san luis potosi","country":"mexico","fax":"?","zip":"?","alcohol":"Full_Bar","smoking_area":"section","dress_code":"informal","accessibility":"completely","price":"low","url":"?","Rambience":"quiet","franchise":"f","area":"closed","other_services":"variety"},{"placeID":132856,"latitude":22.1513782,"longitude":-100.9746337,"the_geom_meter":"0101000020957F0000C1B7D30B2C4858C1CE557111A5A24B41","name":"Unicols Pizza","address":"Plaza del Carmen","city":"San Luis Potosi","state":"San Luis Potosi","country":"Mexico","fax":"?","zip":"?","alcohol":"Wine-Beer","smoking_area":"none","dress_code":"informal","accessibility":"completely","price":"low","url":"?","Rambience":"familiar","franchise":"f","area":"closed","other_services":"none"},{"placeID":132668,"latitude":23.738212,"longitude":-99.1519547,"the_geom_meter":"0101000020957F000003B195E25F8457C1C535BD04614B4941","name":"TACOS EL GUERO","address":"?","city":"victoria","state":"tamaulipas","country":"mexico","fax":"?","zip":"?","alcohol":"No_Alcohol_Served","smoking_area":"none","dress_code":"informal","accessibility":"completely","price":"low","url":"?","Rambience":"familiar","franchise":"f","area":"closed","other_services":"none"},{"placeID":135033,"latitude":22.14161,"longitude":-100.973142,"the_geom_meter":"0101000020957F00000F624C60B54958C11757339BCCA24B41","name":"Restaurant El Muladar de Calzada","address":"De Guadalupe 460 San Miguelito","city":"San Luis Potosi","state":"SLP","country":"Mexico","fax":"?","zip":"78399","alcohol":"No_Alcohol_Served","smoking_area":"section","dress_code":"informal","accessibility":"no_accessibility","price":"medium","url":"?","Rambience":"familiar","franchise":"f","area":"closed","other_services":"none"},{"placeID":132862,"latitude":22.1506429,"longitude":-100.9870148,"the_geom_meter":"0101000020957F0000AF95272CF14758C165B2F91238A64B41","name":"La Posada del Virrey","address":"Av. V. Carranza","city":"San Luis Potosi","state":"San Luis Potosi","country":"Mexico","fax":"?","zip":"?","alcohol":"Wine-Beer","smoking_area":"none","dress_code":"casual","accessibility":"completely","price":"high","url":"?","Rambience":"familiar","franchise":"f","area":"closed","other_services":"none"},{"placeID":134983,"latitude":18.948657,"longitude":-99.235361,"the_geom_meter":"0101000020957F0000DEF36F4FC76A5AC162B083D9A0544A41","name":"Restaurant and Bar and Clothesline Carlos N Charlies","address":"Domingo 10 711 El Empleado","city":"Cuernavaca","state":"Morelos","country":"Mexico","fax":"?","zip":"62250","alcohol":"Full_Bar","smoking_area":"section","dress_code":"informal","accessibility":"no_accessibility","price":"high","url":"carlosandcharlies.com","Rambience":"familiar","franchise":"f","area":"closed","other_services":"none"},{"placeID":132851,"latitude":22.136872,"longitude":-100.9345736,"the_geom_meter":"0101000020957F0000C74DE39C7F4B58C1061F291714984B41","name":"KFC","address":"?","city":"San Luis Potosi","state":"San Luis Potosi","country":"Mexico","fax":"?","zip":"?","alcohol":"No_Alcohol_Served","smoking_area":"not permitted","dress_code":"informal","accessibility":"completely","price":"low","url":"?","Rambience":"familiar","franchise":"f","area":"closed","other_services":"none"},{"placeID":135013,"latitude":18.917441,"longitude":-99.165945,"the_geom_meter":"0101000020957F0000D241E94E7B715AC119862B3B1E414A41","name":"Giovannis","address":"40 Norte Civac 1RA. Seccion","city":"Jiutepec","state":"Morelos","country":"Mexico","fax":"?","zip":"?","alcohol":"No_Alcohol_Served","smoking_area":"none","dress_code":"informal","accessibility":"no_accessibility","price":"low","url":"?","Rambience":"familiar","franchise":"f","area":"closed","other_services":"none"},{"placeID":135042,"latitude":22.159357,"longitude":-100.973411,"the_geom_meter":"0101000020957F0000C66BB014FC4658C17CFE8D93D2A14B41","name":"Restaurant Oriental Express","address":"Tangamanga 7 Tangamanga","city":"San Luis Potosi","state":"SLP","country":"Mexico","fax":"?","zip":"78269","alcohol":"No_Alcohol_Served","smoking_area":"none","dress_code":"informal","accessibility":"no_accessibility","price":"medium","url":"?","Rambience":"familiar","franchise":"f","area":"closed","other_services":"none"},{"placeID":132768,"latitude":18.9257734,"longitude":-99.2326355,"the_geom_meter":"0101000020957F000000DD3546816E5AC119D4BD17FD544A41","name":"Mariscos Tia Licha","address":"avenida salvador montiel ","city":"cuernavaca","state":"morelos","country":"mexico","fax":"?","zip":"62320","alcohol":"No_Alcohol_Served","smoking_area":"not permitted","dress_code":"casual","accessibility":"partially","price":"medium","url":"?","Rambience":"familiar","franchise":"t","area":"closed","other_services":"none"},{"placeID":132561,"latitude":23.726819,"longitude":-99.1265059,"the_geom_meter":"0101000020957F000004457BB7AA8657C15F10835CD9444941","name":"cafe ambar","address":"?","city":"?","state":"?","country":"?","fax":"?","zip":"?","alcohol":"No_Alcohol_Served","smoking_area":"none","dress_code":"informal","accessibility":"completely","price":"low","url":"?","Rambience":"familiar","franchise":"f","area":"closed","other_services":"none"},{"placeID":135045,"latitude":22.151189,"longitude":-100.98179,"the_geom_meter":"0101000020957F00000B6735CA004858C108FD525CB2A44B41","name":"Restaurante la Gran Via","address":"Venustiano Carranza 560 Centro","city":"San Luis Potosi","state":"SLP","country":"Mexico","fax":"?","zip":"78000","alcohol":"Wine-Beer","smoking_area":"none","dress_code":"casual","accessibility":"no_accessibility","price":"high","url":"lagranvia.com.mx","Rambience":"familiar","franchise":"f","area":"closed","other_services":"none"},{"placeID":132847,"latitude":22.1443365,"longitude":-100.9373825,"the_geom_meter":"0101000020957F00004717A23D474A58C17D1F102970984B41","name":"don burguers","address":"r.b. anaya esq. florencia","city":"slp","state":"slp","country":"mexico","fax":"?","zip":"?","alcohol":"No_Alcohol_Served","smoking_area":"none","dress_code":"informal","accessibility":"no_accessibility","price":"low","url":"?","Rambience":"familiar","franchise":"f","area":"open","other_services":"none"},{"placeID":135054,"latitude":22.140626,"longitude":-100.915657,"the_geom_meter":"0101000020957F000011E92CCE714B58C19BF8C0CA75924B41","name":"Restaurante y Pescaderia Tampico","address":"Ricardo B. Anaya 2700 Estrella de Oriente","city":"San Luis Potosi","state":"SLP","country":"Mexico","fax":"?","zip":"78000S","alcohol":"No_Alcohol_Served","smoking_area":"none","dress_code":"informal","accessibility":"no_accessibility","price":"high","url":"?","Rambience":"familiar","franchise":"f","area":"closed","other_services":"none"},{"placeID":134975,"latitude":18.940828,"longitude":-99.215426,"the_geom_meter":"0101000020957F000076F426DC856C5AC1CB520721F84E4A41","name":"Rincon del Bife","address":"?","city":"?","state":"?","country":"?","fax":"?","zip":"?","alcohol":"Full_Bar","smoking_area":"section","dress_code":"informal","accessibility":"completely","price":"high","url":"?","Rambience":"familiar","franchise":"f","area":"closed","other_services":"variety"},{"placeID":135053,"latitude":22.178931,"longitude":-101.012861,"the_geom_meter":"0101000020957F0000B3C05AB5E54258C180F99573E7AB4B41","name":"La Fontana Pizza Restaurante and Cafe","address":"Satelite 606 Satelite","city":"San Luis Potosi","state":"SLP","country":"Mexico","fax":"?","zip":"62460","alcohol":"No_Alcohol_Served","smoking_area":"section","dress_code":"informal","accessibility":"no_accessibility","price":"high","url":"?","Rambience":"familiar","franchise":"f","area":"closed","other_services":"none"},{"placeID":135050,"latitude":22.174887,"longitude":-100.970825,"the_geom_meter":"0101000020957F0000FD78FFF7AD4458C1896A33F029A04B41","name":"Restaurante la Estrella de Dima","address":"Soledad Sn Arboledas de Soledad","city":"Soledad","state":"SLP","country":"Mexico","fax":"?","zip":"78430","alcohol":"Wine-Beer","smoking_area":"none","dress_code":"informal","accessibility":"no_accessibility","price":"high","url":"?","Rambience":"familiar","franchise":"f","area":"closed","other_services":"none"},{"placeID":135025,"latitude":22.14955,"longitude":-100.97797,"the_geom_meter":"0101000020957F0000C7080D105C4858C108B4006AB4A34B41","name":"El Rincon de San Francisco","address":"1a. de Lozada 1","city":"San Luis Potosi","state":"SLP","country":"Mexico","fax":"?","zip":"?","alcohol":"No_Alcohol_Served","smoking_area":"none","dress_code":"informal","accessibility":"no_accessibility","price":"medium","url":"?","Rambience":"familiar","franchise":"f","area":"closed","other_services":"none"},{"placeID":135030,"latitude":22.14788,"longitude":-100.989472,"the_geom_meter":"0101000020957F0000C57C76034C4858C10E437A7E15A74B41","name":"Preambulo Wifi Zone Cafe","address":"Anahuac 805","city":"San Luis Potosi","state":"SLP","country":"Mexico","fax":"?","zip":"?","alcohol":"No_Alcohol_Served","smoking_area":"none","dress_code":"informal","accessibility":"no_accessibility","price":"medium","url":"?","Rambience":"quiet","franchise":"f","area":"closed","other_services":"Internet"},{"placeID":135057,"latitude":22.145992,"longitude":-100.955118,"the_geom_meter":"0101000020957F000095669021894958C182C9C10E669D4B41","name":"El Herradero Restaurante and Bar","address":"Costado Sur Central Camionera Km 2","city":"San Luis Potosi","state":"SLP","country":"Mexico","fax":"?","zip":"78390","alcohol":"Wine-Beer","smoking_area":"section","dress_code":"informal","accessibility":"no_accessibility","price":"medium","url":"?","Rambience":"familiar","franchise":"f","area":"closed","other_services":"none"},{"placeID":135079,"latitude":22.156376,"longitude":-100.998355,"the_geom_meter":"0101000020957F00009FF49E27C04658C1BA8689941CA94B41","name":"Koye Sushi","address":"Nereo Rodriguez Barragan 450 E Centro","city":"San Luis Potosi","state":"SLP","country":"Mexico","fax":"?","zip":"78000","alcohol":"No_Alcohol_Served","smoking_area":"none","dress_code":"informal","accessibility":"no_accessibility","price":"high","url":"?","Rambience":"familiar","franchise":"f","area":"closed","other_services":"none"},{"placeID":134992,"latitude":18.936683,"longitude":-99.247366,"the_geom_meter":"0101000020957F0000FC799354656C5AC1233FCC70E7584A41","name":"Restaurant Teely","address":"La Pradera","city":"Cuernavaca","state":"Morelos","country":"Mexico","fax":"?","zip":"?","alcohol":"Wine-Beer","smoking_area":"section","dress_code":"casual","accessibility":"no_accessibility","price":"high","url":"?","Rambience":"familiar","franchise":"f","area":"closed","other_services":"none"},{"placeID":132954,"latitude":22.1603808,"longitude":-100.9880447,"the_geom_meter":"0101000020957F0000F78F04596C4658C1C151AA1AEFA54B41","name":"la parroquia","address":"venustiano carranza","city":"san luis potosi","state":"san luis potosi","country":"?","fax":"?","zip":"?","alcohol":"No_Alcohol_Served","smoking_area":"not permitted","dress_code":"informal","accessibility":"partially","price":"medium","url":"?","Rambience":"familiar","franchise":"t","area":"closed","other_services":"none"},{"placeID":135041,"latitude":22.15106,"longitude":-100.977659,"the_geom_meter":"0101000020957F0000D2002719234858C1CC7A9FC186A34B41","name":"Luna Cafe","address":"Francisco I. Madero 215","city":"San Luis Potosi","state":"SLP","country":"Mexico","fax":"?","zip":"?","alcohol":"Wine-Beer","smoking_area":"none","dress_code":"informal","accessibility":"no_accessibility","price":"medium","url":"lunacafe.com.mx","Rambience":"familiar","franchise":"f","area":"closed","other_services":"none"},{"placeID":132608,"latitude":23.7588052,"longitude":-99.1651297,"the_geom_meter":"0101000020957F0000A15C8F5FF78057C1C93CEA9E0A4E4941","name":"Hamburguesas La perica","address":"cd. mier","city":"victoria","state":"Tamaulipas","country":"Mexico","fax":"?","zip":"?","alcohol":"No_Alcohol_Served","smoking_area":"permitted","dress_code":"informal","accessibility":"completely","price":"low","url":"?","Rambience":"quiet","franchise":"t","area":"open","other_services":"none"},{"placeID":135046,"latitude":22.141282,"longitude":-101.002958,"the_geom_meter":"0101000020957F000011DFB4E3EE4858C13F78758452AB4B41","name":"Restaurante El Reyecito","address":"Agricultura 595 del Valle","city":"San Luis Potosi","state":"SLP","country":"Mexico","fax":"?","zip":"78200","alcohol":"No_Alcohol_Served","smoking_area":"none","dress_code":"informal","accessibility":"no_accessibility","price":"medium","url":"reyecito.com","Rambience":"familiar","franchise":"f","area":"closed","other_services":"none"},{"placeID":132564,"latitude":23.7309245,"longitude":-99.1451848,"the_geom_meter":"0101000020957F0000EA4F00C5A08557C140085474D9494941","name":"churchs","address":"?","city":"?","state":"?","country":"?","fax":"?","zip":"?","alcohol":"No_Alcohol_Served","smoking_area":"none","dress_code":"informal","accessibility":"completely","price":"low","url":"?","Rambience":"familiar","franchise":"f","area":"closed","other_services":"none"},{"placeID":132869,"latitude":22.1412384,"longitude":-100.9239252,"the_geom_meter":"0101000020957F0000BC62C18D1F4B58C169E0A959C8944B41","name":"Dominos Pizza","address":"Ricardo B. Anaya","city":"San Luis Potosi","state":"San Luis Potosi","country":"Mexico","fax":"?","zip":"?","alcohol":"No_Alcohol_Served","smoking_area":"not permitted","dress_code":"informal","accessibility":"no_accessibility","price":"medium","url":"?","Rambience":"familiar","franchise":"f","area":"closed","other_services":"none"},{"placeID":132925,"latitude":22.1534997,"longitude":-100.976243,"the_geom_meter":"0101000020957F00001EF62687CD4758C1BE336F4EFAA24B41","name":"el pueblito","address":"?","city":"?","state":"?","country":"?","fax":"?","zip":"?","alcohol":"Wine-Beer","smoking_area":"not permitted","dress_code":"informal","accessibility":"completely","price":"medium","url":"?","Rambience":"familiar","franchise":"f","area":"closed","other_services":"none"},{"placeID":132955,"latitude":22.147622,"longitude":-101.0102749,"the_geom_meter":"0101000020957F000068BE7C87C24758C1920A360A08AD4B41","name":"emilianos","address":"venustiano carranza","city":"san luis potos","state":"mexico","country":"?","fax":"?","zip":"?","alcohol":"Wine-Beer","smoking_area":"none","dress_code":"informal","accessibility":"completely","price":"low","url":"?","Rambience":"familiar","franchise":"t","area":"closed","other_services":"variety"},{"placeID":135059,"latitude":22.145108,"longitude":-100.989547,"the_geom_meter":"0101000020957F000005810F19B84858C136805B2745A74B41","name":"Restaurant Bar Hacienda los Martinez","address":"Santos Degollado 745 los Alamitos","city":"San Luis Potosi","state":"SLP","country":"Mexico","fax":"?","zip":"78250","alcohol":"Wine-Beer","smoking_area":"section","dress_code":"informal","accessibility":"no_accessibility","price":"medium","url":"?","Rambience":"familiar","franchise":"f","area":"closed","other_services":"none"},{"placeID":135001,"latitude":18.941859,"longitude":-99.241927,"the_geom_meter":"0101000020957F0000429477F3B36B5AC1D65C45CAFA564A41","name":"Vips","address":"Emiliano Zapata No. 825 Tlaltenongo","city":"Cuernavaca","state":"Morelos","country":"Mexico","fax":"?","zip":"62170","alcohol":"Wine-Beer","smoking_area":"none","dress_code":"informal","accessibility":"completely","price":"medium","url":"?","Rambience":"familiar","franchise":"t","area":"closed","other_services":"none"},{"placeID":135063,"latitude":22.156724,"longitude":-100.975556,"the_geom_meter":"0101000020957F000054B1A10F544758C15BD6A12797A24B41","name":"Restaurante Alhondiga","address":"Alhondiga 62 Centro","city":"San Luis Potosi","state":"SLP","country":"Mexico","fax":"?","zip":"78000","alcohol":"No_Alcohol_Served","smoking_area":"none","dress_code":"informal","accessibility":"no_accessibility","price":"medium","url":"?","Rambience":"familiar","franchise":"f","area":"closed","other_services":"none"},{"placeID":135080,"latitude":22.145008,"longitude":-100.997969,"the_geom_meter":"0101000020957F000033331E4B804858C166643087ADA94B41","name":"los Toneles","address":"Estatuto Juridico 1040 Burocratas","city":"San Luis Potosi","state":"SLP","country":"Mexico","fax":"?","zip":"78270","alcohol":"No_Alcohol_Served","smoking_area":"section","dress_code":"informal","accessibility":"no_accessibility","price":"high","url":"lostoneles.com.mx","Rambience":"familiar","franchise":"f","area":"closed","other_services":"none"},{"placeID":135000,"latitude":18.870565,"longitude":-99.226938,"the_geom_meter":"0101000020957F00001CCDD2577A775AC1D25FB8BA1F564A41","name":"Restaurant los Pinos","address":"Federal Mexico - Acapulco 10 3 de Mayo","city":"Cuernavaca","state":"Morelos","country":"Mexico","fax":"?","zip":"62790","alcohol":"No_Alcohol_Served","smoking_area":"none","dress_code":"informal","accessibility":"no_accessibility","price":"medium","url":"?","Rambience":"familiar","franchise":"f","area":"closed","other_services":"none"},{"placeID":135066,"latitude":22.16835,"longitude":-100.972466,"the_geom_meter":"0101000020957F000013696871A24558C11EE432FB04A14B41","name":"Restaurante Guerra","address":"20 de Noviembre 1817 Tlaxcala","city":"San Luis Potosi","state":"SLP","country":"Mexico","fax":"?","zip":"78038","alcohol":"Wine-Beer","smoking_area":"section","dress_code":"informal","accessibility":"no_accessibility","price":"high","url":"?","Rambience":"familiar","franchise":"f","area":"closed","other_services":"none"},{"placeID":135034,"latitude":22.140517,"longitude":-101.021422,"the_geom_meter":"0101000020957F000026D92BB4894858C161A7552DA2B04B41","name":"Michiko Restaurant Japones","address":"Cordillera de Los Alpes 160 Lomas 2 Seccion","city":"San Luis Potosi","state":"SLP","country":"Mexico","fax":"?","zip":"78210","alcohol":"No_Alcohol_Served","smoking_area":"none","dress_code":"informal","accessibility":"no_accessibility","price":"medium","url":"?","Rambience":"familiar","franchise":"f","area":"closed","other_services":"none"},{"placeID":135060,"latitude":22.156883,"longitude":-100.978485,"the_geom_meter":"0101000020957F00004C95C918394758C17A5C44896AA34B41","name":"Restaurante Marisco Sam","address":"Ignacio Allende 785 Centro","city":"San Luis Potosi","state":"SLP","country":"Mexico","fax":"?","zip":"78310","alcohol":"No_Alcohol_Served","smoking_area":"none","dress_code":"informal","accessibility":"no_accessibility","price":"medium","url":"?","Rambience":"familiar","franchise":"f","area":"closed","other_services":"none"},{"placeID":135055,"latitude":22.148854,"longitude":-101.008472,"the_geom_meter":"0101000020957F00006610DA0F9F4758C12ED00BA771AC4B41","name":"la Cochinita Pibil Restaurante Yucateco","address":"Venustiano Carranza 2175 Jardin","city":"San Luis Potosi","state":"SLP","country":"Mexico","fax":"?","zip":"78270","alcohol":"No_Alcohol_Served","smoking_area":"section","dress_code":"informal","accessibility":"no_accessibility","price":"high","url":"?","Rambience":"familiar","franchise":"f","area":"closed","other_services":"none"},{"placeID":135108,"latitude":22.1362534,"longitude":-100.9335852,"the_geom_meter":"0101000020957F00008FAE40D59E4B58C112C66046D5974B41","name":"Potzocalli","address":"Carretera Central Sn","city":"San Luis Potosi","state":"?","country":"?","fax":"?","zip":"?","alcohol":"No_Alcohol_Served","smoking_area":"none","dress_code":"informal","accessibility":"completely","price":"low","url":"?","Rambience":"familiar","franchise":"f","area":"closed","other_services":"none"},{"placeID":135074,"latitude":22.149689,"longitude":-100.999525,"the_geom_meter":"0101000020957F0000CDA37BD8BD4758C1F4FBE3D2D7A94B41","name":"Restaurante la Parroquia Potosina","address":"Venustiano Carranza 303 Centro","city":"San Luis Potosi","state":"SLP","country":"Mexico","fax":"?","zip":"78000","alcohol":"Wine-Beer","smoking_area":"section","dress_code":"informal","accessibility":"no_accessibility","price":"high","url":"?","Rambience":"familiar","franchise":"f","area":"closed","other_services":"none"},{"placeID":135018,"latitude":18.859803,"longitude":-99.222164,"the_geom_meter":"0101000020957F0000C015D38251795AC1D8D396893A554A41","name":"El Oceano Dorado","address":"Libramiento Burgos Colonia Las Animas","city":"Cuernavaca","state":"Morelos","country":"Mexico","fax":"?","zip":"?","alcohol":"Full_Bar","smoking_area":"permitted","dress_code":"informal","accessibility":"completely","price":"medium","url":"eloceanodorado.com","Rambience":"familiar","franchise":"f","area":"open","other_services":"variety"},{"placeID":135064,"latitude":22.154687,"longitude":-100.996617,"the_geom_meter":"0101000020957F0000245028A70E4758C18E383571B7A84B41","name":"Restaurante El Chivero S.A. de C.V.","address":"Angel Veral 328 Altamira","city":"San Luis Potosi","state":"SLP","country":"Mexico","fax":"?","zip":"78740","alcohol":"No_Alcohol_Served","smoking_area":"none","dress_code":"informal","accessibility":"no_accessibility","price":"high","url":"?","Rambience":"familiar","franchise":"f","area":"closed","other_services":"none"},{"placeID":135038,"latitude":22.155651,"longitude":-100.977767,"the_geom_meter":"0101000020957F0000506149736E4758C1A8BC93DA48A34B41","name":"Restaurant la Chalita","address":"Guajardo Sn San Luis Potosi Centro","city":"San Luis Potosi","state":"SLP","country":"Mexico","fax":"?","zip":"78000","alcohol":"No_Alcohol_Served","smoking_area":"section","dress_code":"informal","accessibility":"no_accessibility","price":"medium","url":"?","Rambience":"familiar","franchise":"f","area":"closed","other_services":"none"},{"placeID":135081,"latitude":22.164842,"longitude":-100.960493,"the_geom_meter":"0101000020957F00006ADAD289804658C168CABB6BD09D4B41","name":"El Club","address":"Mexico 810 Centro","city":"San Luis Potosi","state":"SLP","country":"Mexico","fax":"?","zip":"78000","alcohol":"No_Alcohol_Served","smoking_area":"none","dress_code":"informal","accessibility":"no_accessibility","price":"medium","url":"?","Rambience":"familiar","franchise":"f","area":"closed","other_services":"none"},{"placeID":132723,"latitude":22.1489337,"longitude":-101.019845,"the_geom_meter":"0101000020957F0000B366C9254B4758C191987F9CAEAF4B41","name":"Gordas de morales","address":"?","city":"?","state":"San Luis Potosi","country":"Mexico","fax":"?","zip":"?","alcohol":"Full_Bar","smoking_area":"section","dress_code":"informal","accessibility":"completely","price":"medium","url":"?","Rambience":"familiar","franchise":"f","area":"closed","other_services":"none"},{"placeID":135051,"latitude":22.151189,"longitude":-100.977058,"the_geom_meter":"0101000020957F0000D6537C4C224858C1DED7F6EB58A34B41","name":"Restaurante Versalles","address":"Francisco I. Madero 145 Centro","city":"San Luis Potosi","state":"SLP","country":"Mexico","fax":"?","zip":"78000","alcohol":"No_Alcohol_Served","smoking_area":"section","dress_code":"informal","accessibility":"no_accessibility","price":"low","url":"?","Rambience":"familiar","franchise":"f","area":"closed","other_services":"none"},{"placeID":135021,"latitude":18.933537,"longitude":-99.222497,"the_geom_meter":"0101000020957F00005645259D836D5AC11EF994E27F514A41","name":"Subway","address":"Rio Mayo 17 Vista Hermosa","city":"Cuernavaca","state":"Morelos","country":"Mexico","fax":"?","zip":"62290","alcohol":"No_Alcohol_Served","smoking_area":"not permitted","dress_code":"informal","accessibility":"no_accessibility","price":"low","url":"?","Rambience":"familiar","franchise":"t","area":"closed","other_services":"none"},{"placeID":135052,"latitude":22.150981,"longitude":-100.977412,"the_geom_meter":"0101000020957F0000B72147F1274858C189A406ED75A34B41","name":"La Cantina Restaurante","address":"Ignacio Aldama 300 Centro","city":"San Luis Potosi","state":"SLP","country":"Mexico","fax":"?","zip":"78000","alcohol":"Full_Bar","smoking_area":"none","dress_code":"informal","accessibility":"no_accessibility","price":"high","url":"lacantinaslp.com","Rambience":"familiar","franchise":"f","area":"closed","other_services":"none"},{"placeID":132845,"latitude":22.1262926,"longitude":-100.9007764,"the_geom_meter":"0101000020957F0000B230F8670C4E58C1D590A2700F8F4B41","name":"Cenaduria El Rinc\u00f3n de Tlaquepaque","address":"av. seminario","city":"san luis potosi","state":"san luis potosi","country":"mexico","fax":"?","zip":"?","alcohol":"No_Alcohol_Served","smoking_area":"none","dress_code":"informal","accessibility":"no_accessibility","price":"medium","url":"?","Rambience":"familiar","franchise":"f","area":"closed","other_services":"none"},{"placeID":135011,"latitude":18.91061,"longitude":-99.169539,"the_geom_meter":"0101000020957F0000A68C31737C725AC1A6E234AE90424A41","name":"Los Vikingos","address":"36 Sur Civac","city":"Jiutepec","state":"Morelos","country":"Mexico","fax":"?","zip":"?","alcohol":"No_Alcohol_Served","smoking_area":"none","dress_code":"informal","accessibility":"no_accessibility","price":"medium","url":"?","Rambience":"familiar","franchise":"t","area":"closed","other_services":"none"},{"placeID":132858,"latitude":22.1312917,"longitude":-100.9371941,"the_geom_meter":"0101000020957F0000608CF6D8474C58C1DBF7C50028994B41","name":"Hamburguesas Valle Dorado","address":"Av. Coral","city":"San Luis Potosi","state":"San Luis Potosi","country":"Mexico","fax":"?","zip":"?","alcohol":"No_Alcohol_Served","smoking_area":"none","dress_code":"informal","accessibility":"completely","price":"low","url":"?","Rambience":"familiar","franchise":"f","area":"closed","other_services":"none"},{"placeID":135026,"latitude":22.148665,"longitude":-101.001273,"the_geom_meter":"0101000020957F0000C75F8790D94758C1FF8BCA0567AA4B41","name":"la Cantina","address":"Capitan Caldera No. 420 Tequisqueapan","city":"San Luis Potosi","state":"SLP","country":"Mexico","fax":"?","zip":"78250","alcohol":"Full_Bar","smoking_area":"none","dress_code":"informal","accessibility":"no_accessibility","price":"high","url":"lacantinaslp.com","Rambience":"familiar","franchise":"f","area":"closed","other_services":"none"},{"placeID":132884,"latitude":22.1395776,"longitude":-101.0278863,"the_geom_meter":"0101000020957F00001FAA108A804858C1712EE37088B24B41","name":"dairy queen","address":"?","city":"?","state":"?","country":"?","fax":"?","zip":"?","alcohol":"No_Alcohol_Served","smoking_area":"none","dress_code":"informal","accessibility":"completely","price":"low","url":"?","Rambience":"familiar","franchise":"f","area":"closed","other_services":"none"},{"placeID":135016,"latitude":18.869347,"longitude":-99.209944,"the_geom_meter":"0101000020957F0000FC8866CF17785AC14CD7055B02514A41","name":"Arrachela Grill","address":"69 Tres De Mayo","city":"Cuernavaca","state":"Morelos","country":"Mexico","fax":"?","zip":"?","alcohol":"No_Alcohol_Served","smoking_area":"none","dress_code":"informal","accessibility":"no_accessibility","price":"medium","url":"?","Rambience":"familiar","franchise":"f","area":"closed","other_services":"none"},{"placeID":135104,"latitude":23.7529821,"longitude":-99.1684341,"the_geom_meter":"0101000020957F00007CDF5EAFC58157C1645743B23E4F4941","name":"vips","address":"?","city":"?","state":"?","country":"?","fax":"?","zip":"?","alcohol":"Full_Bar","smoking_area":"not permitted","dress_code":"informal","accessibility":"completely","price":"medium","url":"?","Rambience":"familiar","franchise":"t","area":"closed","other_services":"variety"},{"placeID":132630,"latitude":23.7529305,"longitude":-99.1644725,"the_geom_meter":"0101000020957F000047206572DE8157C1D3315028254E4941","name":"palomo tec","address":"blvrd emilio portes gil","city":"victoria","state":"tamaulipas","country":"?","fax":"?","zip":"?","alcohol":"No_Alcohol_Served","smoking_area":"none","dress_code":"informal","accessibility":"completely","price":"low","url":"?","Rambience":"familiar","franchise":"f","area":"closed","other_services":"none"},{"placeID":135047,"latitude":22.150921,"longitude":-100.993828,"the_geom_meter":"0101000020957F00009C7617FBB54758C1260D663225A84B41","name":"Restaurante Casa de las Flores","address":"General Mariano Arista 1205 Barrio de Tequisquiap","city":"San Luis Potosi","state":"SLP","country":"Mexico","fax":"?","zip":"78310","alcohol":"Wine-Beer","smoking_area":"section","dress_code":"informal","accessibility":"no_accessibility","price":"high","url":"?","Rambience":"familiar","franchise":"f","area":"closed","other_services":"none"},{"placeID":132951,"latitude":22.1544736,"longitude":-100.9858091,"the_geom_meter":"0101000020957F0000BAC859A0634758C1C3E84FCAA5A54B41","name":"VIPS","address":"NICOLAS ZAPATA 300","city":"San Luis Potosi","state":"San Luis Potosi","country":"Mexico","fax":"?","zip":"?","alcohol":"No_Alcohol_Served","smoking_area":"not permitted","dress_code":"casual","accessibility":"completely","price":"low","url":"?","Rambience":"familiar","franchise":"f","area":"closed","other_services":"none"},{"placeID":132665,"latitude":23.7367977,"longitude":-99.1342413,"the_geom_meter":"0101000020957F00007AED0830FC8457C122F85F7B84464941","name":"TACOS CORRECAMINOS","address":"?","city":"victoria","state":"tamaulipas","country":"mexico","fax":"?","zip":"?","alcohol":"No_Alcohol_Served","smoking_area":"none","dress_code":"informal","accessibility":"completely","price":"low","url":"?","Rambience":"familiar","franchise":"f","area":"closed","other_services":"none"},{"placeID":135044,"latitude":22.141848,"longitude":-100.997475,"the_geom_meter":"0101000020957F0000C8B62F9EFF4858C14FA6C296B9A94B41","name":"Restaurant Wu Zhuo Yi","address":"Himno Nacional 100 Avenida","city":"San Luis Potosi","state":"SLP","country":"Mexico","fax":"?","zip":"78240","alcohol":"No_Alcohol_Served","smoking_area":"none","dress_code":"informal","accessibility":"no_accessibility","price":"medium","url":"?","Rambience":"familiar","franchise":"f","area":"closed","other_services":"none"},{"placeID":135035,"latitude":22.145813,"longitude":-101.018032,"the_geom_meter":"0101000020957F00004DDB874CD24758C1F29E91E259AF4B41","name":"El Mundo de la Pasta","address":"Rio Papaloapan 265 Lomas de San Luis (3)","city":"San Luis Potosi","state":"SLP","country":"Mexico","fax":"?","zip":"78210","alcohol":"No_Alcohol_Served","smoking_area":"section","dress_code":"informal","accessibility":"no_accessibility","price":"high","url":"?","Rambience":"familiar","franchise":"f","area":"closed","other_services":"none"},{"placeID":135071,"latitude":22.126375,"longitude":-100.910926,"the_geom_meter":"0101000020957F0000E3A742BFC14D58C1F4E529A7F3914B41","name":"Restaurante la Cantina","address":"De La Estrella 2005 Estrella de Oriente","city":"San Luis Potosi","state":"SLP","country":"Mexico","fax":"?","zip":"78396","alcohol":"Full_Bar","smoking_area":"section","dress_code":"informal","accessibility":"no_accessibility","price":"medium","url":"?","Rambience":"familiar","franchise":"f","area":"closed","other_services":"none"},{"placeID":132834,"latitude":22.156469,"longitude":-100.98554,"the_geom_meter":"0101000020957F00007768135A174758C155D318CB73A54B41","name":"Gorditas Doa Gloria","address":"sevilla y olmedo 715 a","city":"san luis potosi","state":"san luis potosi","country":"mexico","fax":"?","zip":"78349","alcohol":"No_Alcohol_Served","smoking_area":"not permitted","dress_code":"casual","accessibility":"no_accessibility","price":"low","url":"?","Rambience":"familiar","franchise":"f","area":"closed","other_services":"none"},{"placeID":132846,"latitude":22.1422732,"longitude":-100.9426537,"the_geom_meter":"0101000020957F000065D51EE7724A58C1B688A454109A4B41","name":"el lechon potosino ","address":"circuito oriente esq. carretera 57","city":"san luis potosi ","state":"slp","country":"mexico","fax":"?","zip":"?","alcohol":"No_Alcohol_Served","smoking_area":"permitted","dress_code":"casual","accessibility":"no_accessibility","price":"low","url":"?","Rambience":"familiar","franchise":"f","area":"open","other_services":"none"},{"placeID":135048,"latitude":22.142017,"longitude":-100.999246,"the_geom_meter":"0101000020957F00008032636EEC4858C16CDF265038AA4B41","name":"Restaurante Bar Fu-hao","address":"Jesus Goytortua 390 Tangamanga","city":"San Luis Potosi","state":"SLP","country":"Mexico","fax":"?","zip":"78269","alcohol":"Wine-Beer","smoking_area":"none","dress_code":"informal","accessibility":"no_accessibility","price":"high","url":"?","Rambience":"familiar","franchise":"f","area":"closed","other_services":"none"},{"placeID":132717,"latitude":23.7318602,"longitude":-99.1504365,"the_geom_meter":"0101000020957F0000B21C3F6C5E8557C188ACCF0A444B4941","name":"tortas hawai","address":"?","city":"?","state":"?","country":"?","fax":"?","zip":"?","alcohol":"No_Alcohol_Served","smoking_area":"not permitted","dress_code":"informal","accessibility":"partially","price":"medium","url":"?","Rambience":"familiar","franchise":"f","area":"closed","other_services":"none"},{"placeID":132861,"latitude":22.1480965,"longitude":-101.0173023,"the_geom_meter":"0101000020957F000074BBAF047E4758C1424B73C701AF4B41","name":"Carls Jr","address":"Av. V. Carranza","city":"San Luis Potosi","state":"San Luis Potosi","country":"Mexico","fax":"?","zip":"?","alcohol":"No_Alcohol_Served","smoking_area":"not permitted","dress_code":"informal","accessibility":"completely","price":"medium","url":"?","Rambience":"familiar","franchise":"t","area":"closed","other_services":"none"},{"placeID":132885,"latitude":22.1795169,"longitude":-100.9584358,"the_geom_meter":"0101000020957F0000B1DA6F2D504458C112A26CA45B9C4B41","name":"Hamburguesas saul","address":"Av. Saan Luis enttre moctezuma y salinas","city":"San Luis Potosi","state":"San Luis Potosi","country":"mexico","fax":"?","zip":"78433","alcohol":"No_Alcohol_Served","smoking_area":"none","dress_code":"informal","accessibility":"completely","price":"low","url":"?","Rambience":"familiar","franchise":"f","area":"closed","other_services":"none"},{"placeID":132740,"latitude":23.7521965,"longitude":-99.1666317,"the_geom_meter":"0101000020957F000027A30471EE8157C1AC17D61EC84E4941","name":"Carreton de Flautas y Migadas","address":"?","city":"Ciudad Victoria","state":"Tamaulipas","country":"Mexico","fax":"?","zip":"?","alcohol":"No_Alcohol_Served","smoking_area":"permitted","dress_code":"informal","accessibility":"completely","price":"low","url":"?","Rambience":"familiar","franchise":"f","area":"open","other_services":"none"},{"placeID":132830,"latitude":22.1508494,"longitude":-100.9397522,"the_geom_meter":"0101000020957F0000F2E21C48374958C1C6826887BA984B41","name":"Rincon Huasteco","address":"?","city":"?","state":"?","country":"?","fax":"?","zip":"?","alcohol":"No_Alcohol_Served","smoking_area":"none","dress_code":"informal","accessibility":"completely","price":"low","url":"?","Rambience":"familiar","franchise":"f","area":"closed","other_services":"none"},{"placeID":132773,"latitude":18.8699929,"longitude":-99.2103195,"the_geom_meter":"0101000020957F0000B1F935F9FA775AC1D06DFD1017514A41","name":"El cotorreo","address":"Emiliano Zapata Col. Tres de Mayo","city":"Cuernavaca","state":"Morelos","country":"?","fax":"?","zip":"?","alcohol":"Wine-Beer","smoking_area":"permitted","dress_code":"informal","accessibility":"no_accessibility","price":"low","url":"?","Rambience":"familiar","franchise":"f","area":"open","other_services":"none"},{"placeID":132706,"latitude":23.7292162,"longitude":-99.1323571,"the_geom_meter":"0101000020957F00000F14BF6B2C8657C1963CCB8E5C464941","name":"Gorditas Dona Tota","address":"Zaragoza entre Francisco Zarco y Lopez Velarde","city":"Cd. Victoria","state":"Tamaulipas","country":"Mexico","fax":"?","zip":"?","alcohol":"No_Alcohol_Served","smoking_area":"not permitted","dress_code":"informal","accessibility":"no_accessibility","price":"medium","url":"?","Rambience":"familiar","franchise":"t","area":"closed","other_services":"none"},{"placeID":132872,"latitude":22.1735955,"longitude":-100.9946027,"the_geom_meter":"0101000020957F0000942C3434384458C1C2D3499804A74B41","name":"Pizzeria Julios","address":"?","city":"s.l.p","state":"mexico","country":"?","fax":"?","zip":"?","alcohol":"No_Alcohol_Served","smoking_area":"not permitted","dress_code":"informal","accessibility":"partially","price":"medium","url":"?","Rambience":"familiar","franchise":"f","area":"closed","other_services":"none"},{"placeID":134987,"latitude":18.932725,"longitude":-99.225211,"the_geom_meter":"0101000020957F0000FE987FAF936D5AC1E1D486215E524A41","name":"Chilis Cuernavaca","address":"Rio Mayo Colonia Vista Hermosa Esq. Rio Balsas","city":"Cuernavaca","state":"Morelos","country":"Mexico","fax":"?","zip":"62290","alcohol":"Wine-Beer","smoking_area":"none","dress_code":"informal","accessibility":"no_accessibility","price":"medium","url":"chilis.com.mx","Rambience":"familiar","franchise":"f","area":"closed","other_services":"none"},{"placeID":132572,"latitude":22.1416471,"longitude":-100.9927118,"the_geom_meter":"0101000020957F00005D19BF45294958C18FF7F8E260A84B41","name":"Cafe Chaires","address":"?","city":"San Luis Potosi","state":"San Luis Potosi","country":"Mexico","fax":"?","zip":"?","alcohol":"No_Alcohol_Served","smoking_area":"not permitted","dress_code":"informal","accessibility":"completely","price":"low","url":"?","Rambience":"familiar","franchise":"f","area":"closed","other_services":"none"},{"placeID":132958,"latitude":22.1449787,"longitude":-101.0056829,"the_geom_meter":"0101000020957F000049095EB34A4858C15CB4BD1EE1AB4B41","name":"tacos los volcanes","address":"avenida hivno nacional","city":"san luis potosi","state":"san luis potos","country":"mexico","fax":"?","zip":"?","alcohol":"No_Alcohol_Served","smoking_area":"none","dress_code":"informal","accessibility":"completely","price":"low","url":"?","Rambience":"quiet","franchise":"t","area":"closed","other_services":"none"},{"placeID":132733,"latitude":23.7527071,"longitude":-99.1625655,"the_geom_meter":"0101000020957F0000F2F4110CF28157C1DCFD7C1BA04D4941","name":"Little Cesarz","address":"?","city":"Ciudad Victoria","state":"Tamaulipas","country":"Mexico","fax":"?","zip":"?","alcohol":"No_Alcohol_Served","smoking_area":"not permitted","dress_code":"informal","accessibility":"completely","price":"medium","url":"?","Rambience":"familiar","franchise":"t","area":"closed","other_services":"none"},{"placeID":132922,"latitude":22.1511348,"longitude":-100.9823115,"the_geom_meter":"0101000020957F000060A98A38FF4758C146718E41D9A44B41","name":"cafe punta del cielo","address":"?","city":"?","state":"?","country":"?","fax":"?","zip":"?","alcohol":"No_Alcohol_Served","smoking_area":"permitted","dress_code":"formal","accessibility":"completely","price":"medium","url":"?","Rambience":"familiar","franchise":"f","area":"closed","other_services":"none"},{"placeID":132715,"latitude":23.7324226,"longitude":-99.1586602,"the_geom_meter":"0101000020957F00004609B96F198557C11973490A874D4941","name":"tacos de la estacion","address":"?","city":"?","state":"?","country":"?","fax":"?","zip":"?","alcohol":"No_Alcohol_Served","smoking_area":"none","dress_code":"informal","accessibility":"no_accessibility","price":"low","url":"?","Rambience":"quiet","franchise":"f","area":"open","other_services":"none"},{"placeID":135027,"latitude":22.147145,"longitude":-100.974494,"the_geom_meter":"0101000020957F000087BEDDE8D24858C1B20CDB33DBA24B41","name":"Restaurant Orizatlan","address":"Pascual M. Hernandez 240","city":"San Luis Potosi","state":"SLP","country":"Mexico","fax":"?","zip":"?","alcohol":"Wine-Beer","smoking_area":"none","dress_code":"informal","accessibility":"no_accessibility","price":"medium","url":"?","Rambience":"familiar","franchise":"f","area":"closed","other_services":"none"},{"placeID":132767,"latitude":18.8820871,"longitude":-99.1630268,"the_geom_meter":"0101000020957F00001672C2C435775AC1F69BF2EF0D424A41","name":"Restaurant Familiar El Chino","address":"Paseo de las Fuentes","city":"Jiutepec","state":"Morelos","country":"?","fax":"?","zip":"?","alcohol":"Wine-Beer","smoking_area":"permitted","dress_code":"casual","accessibility":"partially","price":"medium","url":"?","Rambience":"familiar","franchise":"f","area":"open","other_services":"variety"},{"placeID":135039,"latitude":22.145893,"longitude":-100.97487,"the_geom_meter":"0101000020957F000040D5CE4E014958C177DC62AE09A34B41","name":"Restaurant de Mariscos de Picon","address":"Miguel Barragan 46 Centro","city":"San Luis Potosi","state":"SLP","country":"Mexico","fax":"?","zip":"79300","alcohol":"No_Alcohol_Served","smoking_area":"section","dress_code":"informal","accessibility":"no_accessibility","price":"low","url":"?","Rambience":"familiar","franchise":"f","area":"closed","other_services":"none"},{"placeID":134996,"latitude":18.923429,"longitude":-99.216413,"the_geom_meter":"0101000020957F0000340233E7476F5AC132844E2A2C504A41","name":"Sanborns Casa Piedra","address":"Lomas del Mirador","city":"Cuernavaca","state":"Morelos","country":"Mexico","fax":"?","zip":"?","alcohol":"Wine-Beer","smoking_area":"only at bar","dress_code":"informal","accessibility":"no_accessibility","price":"medium","url":"?","Rambience":"familiar","franchise":"t","area":"closed","other_services":"Internet"},{"placeID":132755,"latitude":22.153324,"longitude":-101.0195459,"the_geom_meter":"0101000020957F000026CADE45A14658C1F011EBCA55AF4B41","name":"La Estrella de Dimas","address":"Av. de los Pintores","city":"San Luis Potosi","state":"S.L.P.","country":"Mexico","fax":"?","zip":"?","alcohol":"No_Alcohol_Served","smoking_area":"none","dress_code":"informal","accessibility":"partially","price":"medium","url":"?","Rambience":"familiar","franchise":"f","area":"closed","other_services":"variety"},{"placeID":135043,"latitude":22.185756,"longitude":-100.944518,"the_geom_meter":"0101000020957F00006B9D7207BE4358C12419118D05984B41","name":"pizza clasica","address":"524 Soledad de Graciano Sanchez","city":"Soledad","state":"SLP","country":"Mexico","fax":"?","zip":"?","alcohol":"No_Alcohol_Served","smoking_area":"none","dress_code":"informal","accessibility":"no_accessibility","price":"medium","url":"?","Rambience":"familiar","franchise":"f","area":"closed","other_services":"none"},{"placeID":132654,"latitude":23.7355234,"longitude":-99.1295877,"the_geom_meter":"0101000020957F000040E8F628488557C18224E8B948454941","name":"Carnitas Mata  Calle 16 de Septiembre","address":"16 de Septiembre","city":"victoria ","state":"tamaulipas","country":"?","fax":"?","zip":"?","alcohol":"No_Alcohol_Served","smoking_area":"none","dress_code":"informal","accessibility":"completely","price":"low","url":"?","Rambience":"familiar","franchise":"f","area":"closed","other_services":"none"},{"placeID":135049,"latitude":22.135011,"longitude":-101.0286,"the_geom_meter":"0101000020957F00005DAD35642E4958C11BBCDE4A02B34B41","name":"Restaurante de Mariscos la Langosta","address":"Cordillera de Los Alpes 675 Loma Verde","city":"San Luis Potosi","state":"SLP","country":"Mexico","fax":"?","zip":"78214","alcohol":"No_Alcohol_Served","smoking_area":"none","dress_code":"informal","accessibility":"no_accessibility","price":"medium","url":"?","Rambience":"familiar","franchise":"f","area":"closed","other_services":"none"},{"placeID":135073,"latitude":22.147175,"longitude":-100.974269,"the_geom_meter":"0101000020957F0000D010A853D34858C116A1EA51CAA24B41","name":"Restaurante Bar El Gallinero","address":"Pascual M. Hernandez 210 Centro","city":"San Luis Potosi","state":"SLP","country":"Mexico","fax":"?","zip":"78000","alcohol":"Wine-Beer","smoking_area":"section","dress_code":"informal","accessibility":"no_accessibility","price":"high","url":"?","Rambience":"familiar","franchise":"f","area":"closed","other_services":"none"},{"placeID":132560,"latitude":23.7523041,"longitude":-99.1669133,"the_geom_meter":"0101000020957F0000FC60BDA8E88157C1B2C357D6DA4E4941","name":"puesto de gorditas","address":"frente al tecnologico","city":"victoria","state":"tamaulipas","country":"mexico","fax":"?","zip":"?","alcohol":"No_Alcohol_Served","smoking_area":"permitted","dress_code":"informal","accessibility":"no_accessibility","price":"low","url":"?","Rambience":"familiar","franchise":"f","area":"open","other_services":"none"},{"placeID":134976,"latitude":18.916654,"longitude":-99.22711,"the_geom_meter":"0101000020957F00002838E29F19705AC1BC368BDAC7534A41","name":"Log Yin","address":"?","city":"?","state":"?","country":"?","fax":"?","zip":"?","alcohol":"No_Alcohol_Served","smoking_area":"none","dress_code":"informal","accessibility":"no_accessibility","price":"low","url":"?","Rambience":"familiar","franchise":"f","area":"closed","other_services":"none"},{"placeID":135075,"latitude":22.139573,"longitude":-100.991564,"the_geom_meter":"0101000020957F0000332AE8AF824958C15A4195A82CA84B41","name":"Mariscos El Pescador","address":"Himno Nacional 2104 Tangamanga","city":"San Luis Potosi","state":"SLP","country":"Mexico","fax":"?","zip":"78269","alcohol":"No_Alcohol_Served","smoking_area":"none","dress_code":"informal","accessibility":"no_accessibility","price":"medium","url":"?","Rambience":"familiar","franchise":"f","area":"closed","other_services":"none"},{"placeID":132660,"latitude":23.7529428,"longitude":-99.1646791,"the_geom_meter":"0101000020957F00003D7905C9DC8157C13FCD1AB7334E4941","name":"carnitas mata calle Emilio Portes Gil","address":"Emilio Portes Gil","city":"victoria","state":"tamaulipas","country":"?","fax":"?","zip":"?","alcohol":"No_Alcohol_Served","smoking_area":"none","dress_code":"informal","accessibility":"completely","price":"low","url":"?","Rambience":"familiar","franchise":"f","area":"closed","other_services":"none"},{"placeID":132921,"latitude":22.150305,"longitude":-100.9891337,"the_geom_meter":"0101000020957F00006376BB64EF4758C1013687E5D7A64B41","name":"crudalia","address":"?","city":"?","state":"?","country":"?","fax":"?","zip":"?","alcohol":"Wine-Beer","smoking_area":"section","dress_code":"casual","accessibility":"completely","price":"low","url":"?","Rambience":"quiet","franchise":"f","area":"open","other_services":"none"},{"placeID":132594,"latitude":23.7521677,"longitude":-99.165709,"the_geom_meter":"0101000020957F00003AE4C6DBF48157C1CE38ECC1864E4941","name":"tacos de barbacoa enfrente del Tec","address":"?","city":"?","state":"?","country":"?","fax":"?","zip":"?","alcohol":"No_Alcohol_Served","smoking_area":"not permitted","dress_code":"informal","accessibility":"completely","price":"low","url":"?","Rambience":"familiar","franchise":"f","area":"open","other_services":"none"},{"placeID":134986,"latitude":18.928798,"longitude":-99.239513,"the_geom_meter":"0101000020957F00002A0D05E2D96D5AC1AB058CB1EC564A41","name":"Restaurant Las Mananitas","address":"Ricardo Linares 107","city":"Cuernavaca","state":"Morelos","country":"Mexico","fax":"?","zip":"?","alcohol":"Wine-Beer","smoking_area":"none","dress_code":"formal","accessibility":"no_accessibility","price":"high","url":"lasmananitas.com.mx","Rambience":"familiar","franchise":"f","area":"closed","other_services":"none"},{"placeID":135062,"latitude":22.153703,"longitude":-100.979033,"the_geom_meter":"0101000020957F0000D177B9CFB14758C162A211E1C2A34B41","name":"Restaurante El Cielo Potosino","address":"Julian de Los Reyes 400 Centro","city":"San Luis Potosi","state":"SLP","country":"Mexico","fax":"?","zip":"78000","alcohol":"No_Alcohol_Served","smoking_area":"none","dress_code":"informal","accessibility":"no_accessibility","price":"medium","url":"?","Rambience":"familiar","franchise":"f","area":"closed","other_services":"none"},{"placeID":132766,"latitude":18.9101777,"longitude":-99.2315438,"the_geom_meter":"0101000020957F000043A319BA06715AC19443369877554A41","name":"Mikasa","address":"Himno nacional esq. Blvd. Juarez","city":"Cuernavaca","state":"Morelos","country":"Mexico","fax":"?","zip":"?","alcohol":"Wine-Beer","smoking_area":"none","dress_code":"informal","accessibility":"no_accessibility","price":"medium","url":"?","Rambience":"familiar","franchise":"f","area":"closed","other_services":"none"},{"placeID":135088,"latitude":18.8760113,"longitude":-99.2198896,"the_geom_meter":"0101000020957F0000E14AD4DBC7765AC1F7B33C85B1534A41","name":"Cafeteria cenidet","address":"Interior Internado Palmira SN","city":"Cuernavaca","state":"Morelos","country":"Mexico","fax":"?","zip":"?","alcohol":"No_Alcohol_Served","smoking_area":"not permitted","dress_code":"informal","accessibility":"no_accessibility","price":"low","url":"www.cenidet.edu.mx","Rambience":"quiet","franchise":"f","area":"closed","other_services":"none"},{"placeID":135058,"latitude":22.165587,"longitude":-101.001273,"the_geom_meter":"0101000020957F0000EB71019D424558C15CC5404365A94B41","name":"Restaurante Tiberius","address":"Munoz Sn Centro","city":"San Luis Potosi","state":"SLP","country":"Mexico","fax":"?","zip":"64000","alcohol":"No_Alcohol_Served","smoking_area":"none","dress_code":"informal","accessibility":"no_accessibility","price":"medium","url":"?","Rambience":"familiar","franchise":"t","area":"closed","other_services":"none"},{"placeID":132754,"latitude":22.1477379,"longitude":-100.9906163,"the_geom_meter":"0101000020957F00002493B678494858C1AD55D2316BA74B41","name":"Cabana Huasteca","address":"Cuauhtemoc 455","city":"San Luis Potosi","state":"S.L.P.","country":"Mexico","fax":"?","zip":"?","alcohol":"No_Alcohol_Served","smoking_area":"none","dress_code":"informal","accessibility":"partially","price":"medium","url":"?","Rambience":"familiar","franchise":"f","area":"closed","other_services":"none"},{"placeID":132584,"latitude":23.7523648,"longitude":-99.1652879,"the_geom_meter":"0101000020957F000048C65BA7EF8157C177F2344D664E4941","name":"Gorditas Dona Tota","address":"?","city":"?","state":"?","country":"?","fax":"?","zip":"?","alcohol":"No_Alcohol_Served","smoking_area":"not permitted","dress_code":"informal","accessibility":"completely","price":"medium","url":"?","Rambience":"familiar","franchise":"t","area":"closed","other_services":"none"},{"placeID":135032,"latitude":22.152481,"longitude":-100.973486,"the_geom_meter":"0101000020957F000017D69FF5084858C1A8F2188740A24B41","name":"Cafeteria y Restaurant El Pacifico","address":"Constitucion 200 Centro","city":"San Luis Potosi","state":"SLP","country":"Mexico","fax":"?","zip":"78000","alcohol":"Wine-Beer","smoking_area":"section","dress_code":"informal","accessibility":"no_accessibility","price":"medium","url":"?","Rambience":"familiar","franchise":"f","area":"closed","other_services":"none"},{"placeID":135028,"latitude":22.146658,"longitude":-100.987219,"the_geom_meter":"0101000020957F0000B4F00BDD8B4858C10AC3619C83A64B41","name":"La Virreina","address":"Av. Carranza 830","city":"San Luis Potosi","state":"SLP","country":"Mexico","fax":"?","zip":"?","alcohol":"Wine-Beer","smoking_area":"none","dress_code":"informal","accessibility":"no_accessibility","price":"medium","url":"?","Rambience":"familiar","franchise":"f","area":"closed","other_services":"none"},{"placeID":135085,"latitude":22.150802,"longitude":-100.98268,"the_geom_meter":"0101000020957F00009F823DA6094858C18A2D4D37F9A44B41","name":"Tortas Locas Hipocampo","address":"Venustiano Carranza 719 Centro","city":"San Luis Potosi","state":"SLP","country":"Mexico","fax":"?","zip":"78000","alcohol":"No_Alcohol_Served","smoking_area":"not permitted","dress_code":"informal","accessibility":"no_accessibility","price":"medium","url":"?","Rambience":"familiar","franchise":"f","area":"closed","other_services":"none"},{"placeID":132663,"latitude":23.7525107,"longitude":-99.1669536,"the_geom_meter":"0101000020957F0000FDF8D26EE08157C1FEDB6A1FDB4E4941","name":"tacos abi","address":"?","city":"victoria","state":"tamaulipas","country":"mexico","fax":"?","zip":"?","alcohol":"No_Alcohol_Served","smoking_area":"none","dress_code":"informal","accessibility":"completely","price":"low","url":"?","Rambience":"familiar","franchise":"f","area":"closed","other_services":"none"},{"placeID":132626,"latitude":23.7375834,"longitude":-99.1351318,"the_geom_meter":"0101000020957F0000AA7883ADD88457C1FA651328BA464941","name":"la perica hamburguesa","address":"?","city":"victoria","state":"tamaulipas","country":"?","fax":"?","zip":"?","alcohol":"No_Alcohol_Served","smoking_area":"none","dress_code":"informal","accessibility":"completely","price":"medium","url":"?","Rambience":"familiar","franchise":"t","area":"closed","other_services":"none"},{"placeID":132583,"latitude":18.9222904,"longitude":-99.234332,"the_geom_meter":"0101000020957F0000FBE7171F056F5AC1E8A6C0A5AF554A41","name":"McDonalds Centro","address":"Rayon sn col. Centro","city":"Cuernavaca","state":"Morelos","country":"Mexico","fax":"?","zip":"62000","alcohol":"No_Alcohol_Served","smoking_area":"not permitted","dress_code":"informal","accessibility":"partially","price":"low","url":"no","Rambience":"familiar","franchise":"t","area":"closed","other_services":"none"},{"placeID":132866,"latitude":22.1412198,"longitude":-100.9313107,"the_geom_meter":"0101000020957F000013871838EC4A58C1B5DF74F8E3964B41","name":"Chaires","address":"Ricardo B. Anaya","city":"San Luis Potosi","state":"San Luis Potosi","country":"Mexico","fax":"?","zip":"?","alcohol":"No_Alcohol_Served","smoking_area":"not permitted","dress_code":"informal","accessibility":"completely","price":"medium","url":"?","Rambience":"familiar","franchise":"f","area":"closed","other_services":"none"},{"placeID":135072,"latitude":22.149192,"longitude":-101.002936,"the_geom_meter":"0101000020957F0000E7B79B1DB94758C1D29BC363D8AA4B41","name":"Sushi Itto","address":"Venustiano Carranza 1809 C Polanco","city":"San Luis Potosi","state":"SLP","country":"Mexico","fax":"?","zip":"78220","alcohol":"No_Alcohol_Served","smoking_area":"none","dress_code":"informal","accessibility":"no_accessibility","price":"medium","url":"sushi-itto.com.mx","Rambience":"familiar","franchise":"f","area":"closed","other_services":"none"},{"placeID":135109,"latitude":18.9217848,"longitude":-99.2353499,"the_geom_meter":"0101000020957F0000A6BF695F136F5AC1DADF87B205564A41","name":"Paniroles","address":"?","city":"?","state":"?","country":"?","fax":"?","zip":"?","alcohol":"Wine-Beer","smoking_area":"not permitted","dress_code":"informal","accessibility":"no_accessibility","price":"medium","url":"?","Rambience":"quiet","franchise":"f","area":"closed","other_services":"Internet"},{"placeID":135019,"latitude":18.875011,"longitude":-99.159422,"the_geom_meter":"0101000020957F0000B49B2E5C6E785AC12F9D584352414A41","name":"Restaurant Bar Coty y Pablo","address":"Paseo de Las Fuentes 24 Pedregal de Las Fuentes","city":"Jiutepec","state":"Morelos","country":"Mexico","fax":"?","zip":"?","alcohol":"No_Alcohol_Served","smoking_area":"none","dress_code":"informal","accessibility":"completely","price":"low","url":"?","Rambience":"familiar","franchise":"f","area":"closed","other_services":"none"},{"placeID":132877,"latitude":22.1353639,"longitude":-100.9349477,"the_geom_meter":"0101000020957F000090735015B84B58C1AF0DC04146984B41","name":"sirloin stockade","address":"?","city":"?","state":"?","country":"?","fax":"?","zip":"?","alcohol":"No_Alcohol_Served","smoking_area":"none","dress_code":"informal","accessibility":"completely","price":"low","url":"?","Rambience":"familiar","franchise":"f","area":"closed","other_services":"none"}]